[
  {
    "id":"BOR001",
    "title":"Cross-Border Firing Report",
    "location":"Poonch, Jammu & Kashmir",
    "lat":33.7700,
    "lng":74.0900,
    "category":"border",
    "severity":"high",
    "date":"2026-06-04",
    "source":"Demo Data",
    "summary":"Reported ceasefire violation activity along the Line of Control."
  },
  {
    "id":"BOR002",
    "title":"Enhanced Patrol Activity",
    "location":"Rajouri, Jammu & Kashmir",
    "lat":33.3800,
    "lng":74.3000,
    "category":"border",
    "severity":"medium",
    "date":"2026-06-03",
    "source":"Demo Data",
    "summary":"Additional patrol units deployed in forward areas."
  },
  {
    "id":"BOR003",
    "title":"Observation Post Alert",
    "location":"Kupwara, Jammu & Kashmir",
    "lat":34.5300,
    "lng":74.2600,
    "category":"border",
    "severity":"medium",
    "date":"2026-06-05",
    "source":"Demo Data",
    "summary":"Observation teams reported increased activity across the border."
  },
  {
    "id":"BOR004",
    "title":"High Altitude Surveillance Mission",
    "location":"Daulat Beg Oldi, Ladakh",
    "lat":37.0000,
    "lng":77.5700,
    "category":"border",
    "severity":"high",
    "date":"2026-06-02",
    "source":"Demo Data",
    "summary":"Routine aerial surveillance conducted over northern frontier."
  },
  {
    "id":"BOR005",
    "title":"Forward Area Logistics Convoy",
    "location":"Demchok, Ladakh",
    "lat":32.6800,
    "lng":79.7200,
    "category":"border",
    "severity":"medium",
    "date":"2026-06-01",
    "source":"Demo Data",
    "summary":"Supply convoy movement recorded near border outposts."
  },
  {
    "id":"BOR006",
    "title":"Border Infrastructure Inspection",
    "location":"Naku La, Sikkim",
    "lat":27.4100,
    "lng":88.7500,
    "category":"border",
    "severity":"low",
    "date":"2026-06-03",
    "source":"Demo Data",
    "summary":"Routine inspection of border infrastructure assets."
  },
  {
    "id":"BOR007",
    "title":"Increased Monitoring Activity",
    "location":"Tawang, Arunachal Pradesh",
    "lat":27.5866,
    "lng":91.8639,
    "category":"border",
    "severity":"high",
    "date":"2026-06-05",
    "source":"Demo Data",
    "summary":"Forward observation posts reported increased monitoring activity."
  },
  {
    "id":"BOR008",
    "title":"Border Road Movement",
    "location":"Anjaw, Arunachal Pradesh",
    "lat":28.0600,
    "lng":96.8300,
    "category":"border",
    "severity":"medium",
    "date":"2026-06-02",
    "source":"Demo Data",
    "summary":"Military logistics vehicles observed along strategic routes."
  },
  {
    "id":"BOR009",
    "title":"Border Security Inspection",
    "location":"Fazilka, Punjab",
    "lat":30.4000,
    "lng":74.0300,
    "category":"border",
    "severity":"low",
    "date":"2026-06-01",
    "source":"Demo Data",
    "summary":"Routine security inspection by border personnel."
  },
  {
    "id":"BOR010",
    "title":"Surveillance Equipment Upgrade",
    "location":"Amritsar Sector, Punjab",
    "lat":31.6340,
    "lng":74.8723,
    "category":"border",
    "severity":"medium",
    "date":"2026-06-04",
    "source":"Demo Data",
    "summary":"Modern surveillance equipment deployed in selected sectors."
  },
  {
    "id":"BOR011",
    "title":"Border Fence Maintenance",
    "location":"Sri Ganganagar, Rajasthan",
    "lat":29.9000,
    "lng":73.8800,
    "category":"border",
    "severity":"low",
    "date":"2026-06-03",
    "source":"Demo Data",
    "summary":"Maintenance operations carried out along border fencing."
  },
  {
    "id":"BOR012",
    "title":"Forward Patrol Deployment",
    "location":"Jaisalmer, Rajasthan",
    "lat":26.9157,
    "lng":70.9083,
    "category":"border",
    "severity":"medium",
    "date":"2026-06-05",
    "source":"Demo Data",
    "summary":"Additional patrol teams deployed for routine monitoring."
  },
  {
    "id":"BOR013",
    "title":"Coastal Border Surveillance",
    "location":"Sir Creek, Gujarat",
    "lat":23.9200,
    "lng":68.5800,
    "category":"border",
    "severity":"high",
    "date":"2026-06-04",
    "source":"Demo Data",
    "summary":"Enhanced surveillance activity reported in coastal border area."
  },
  {
    "id":"BOR014",
    "title":"Marshland Reconnaissance Patrol",
    "location":"Kutch Border Sector, Gujarat",
    "lat":23.7300,
    "lng":69.8500,
    "category":"border",
    "severity":"medium",
    "date":"2026-06-02",
    "source":"Demo Data",
    "summary":"Reconnaissance patrol conducted in difficult terrain."
  },
  {
    "id":"BOR015",
    "title":"Forward Observation Upgrade",
    "location":"Uri, Jammu & Kashmir",
    "lat":34.0800,
    "lng":74.0500,
    "category":"border",
    "severity":"high",
    "date":"2026-06-05",
    "source":"Demo Data",
    "summary":"Observation systems upgraded in forward deployment area."
  }
]
