[
  {
    "id":"INF001",
    "title":"Zojila Tunnel Construction Progress",
    "location":"Zojila Pass, Ladakh",
    "lat":34.2800,
    "lng":75.5500,
    "category":"infrastructure",
    "severity":"high",
    "date":"2026-06-05",
    "source":"Demo Data",
    "summary":"Strategic tunnel project improving all-weather connectivity."
  },
  {
    "id":"INF002",
    "title":"Sela Tunnel Operational Monitoring",
    "location":"Tawang, Arunachal Pradesh",
    "lat":27.5000,
    "lng":92.1000,
    "category":"infrastructure",
    "severity":"medium",
    "date":"2026-06-04",
    "source":"Demo Data",
    "summary":"Strategic border connectivity infrastructure."
  },
  {
    "id":"INF003",
    "title":"Border Road Upgrade",
    "location":"Leh",
    "lat":34.1526,
    "lng":77.5770,
    "category":"infrastructure",
    "severity":"medium",
    "date":"2026-06-03",
    "source":"Demo Data",
    "summary":"Road widening project supporting logistics movement."
  },
  {
    "id":"INF004",
    "title":"Defence Corridor Development",
    "location":"Lucknow",
    "lat":26.8467,
    "lng":80.9462,
    "category":"infrastructure",
    "severity":"medium",
    "date":"2026-06-05",
    "source":"Demo Data",
    "summary":"Industrial defence manufacturing cluster expansion."
  },
  {
    "id":"INF005",
    "title":"Defence Corridor Expansion",
    "location":"Coimbatore",
    "lat":11.0168,
    "lng":76.9558,
    "category":"infrastructure",
    "severity":"medium",
    "date":"2026-06-04",
    "source":"Demo Data",
    "summary":"Southern defence manufacturing hub development."
  },
  {
    "id":"INF006",
    "title":"Strategic Bridge Reinforcement",
    "location":"Kargil",
    "lat":34.5564,
    "lng":76.1349,
    "category":"infrastructure",
    "severity":"high",
    "date":"2026-06-03",
    "source":"Demo Data",
    "summary":"Bridge upgrade to support heavy military transport."
  },
  {
    "id":"INF007",
    "title":"Airfield Modernization",
    "location":"Thoise",
    "lat":34.6500,
    "lng":77.2000,
    "category":"infrastructure",
    "severity":"high",
    "date":"2026-06-05",
    "source":"Demo Data",
    "summary":"Runway and logistics infrastructure upgrades."
  },
  {
    "id":"INF008",
    "title":"Naval Dock Expansion",
    "location":"Karwar",
    "lat":14.8167,
    "lng":74.1333,
    "category":"infrastructure",
    "severity":"high",
    "date":"2026-06-05",
    "source":"Demo Data",
    "summary":"Expansion of strategic naval docking facilities."
  },
  {
    "id":"INF009",
    "title":"Port Modernization",
    "location":"Visakhapatnam",
    "lat":17.6868,
    "lng":83.2185,
    "category":"infrastructure",
    "severity":"medium",
    "date":"2026-06-04",
    "source":"Demo Data",
    "summary":"Infrastructure enhancement at major eastern port."
  },
  {
    "id":"INF010",
    "title":"Military Logistics Hub Upgrade",
    "location":"Nagpur",
    "lat":21.1458,
    "lng":79.0882,
    "category":"infrastructure",
    "severity":"medium",
    "date":"2026-06-02",
    "source":"Demo Data",
    "summary":"Central logistics infrastructure modernization."
  },
  {
    "id":"INF011",
    "title":"Strategic Rail Connectivity Project",
    "location":"Siliguri Corridor",
    "lat":26.7271,
    "lng":88.3953,
    "category":"infrastructure",
    "severity":"high",
    "date":"2026-06-05",
    "source":"Demo Data",
    "summary":"Rail infrastructure improvements near critical corridor."
  },
  {
    "id":"INF012",
    "title":"High Altitude Road Project",
    "location":"Demchok",
    "lat":32.6800,
    "lng":79.7200,
    "category":"infrastructure",
    "severity":"high",
    "date":"2026-06-04",
    "source":"Demo Data",
    "summary":"Road connectivity enhancement near border sector."
  },
  {
    "id":"INF013",
    "title":"Tunnel Survey Operations",
    "location":"Uttarkashi",
    "lat":30.7268,
    "lng":78.4354,
    "category":"infrastructure",
    "severity":"medium",
    "date":"2026-06-03",
    "source":"Demo Data",
    "summary":"Preliminary survey for strategic transport tunnel."
  },
  {
    "id":"INF014",
    "title":"Border Outpost Construction",
    "location":"Anjaw",
    "lat":28.0600,
    "lng":96.8300,
    "category":"infrastructure",
    "severity":"high",
    "date":"2026-06-05",
    "source":"Demo Data",
    "summary":"New infrastructure supporting frontier deployment."
  },
  {
    "id":"INF015",
    "title":"Airport Expansion Project",
    "location":"Port Blair",
    "lat":11.6234,
    "lng":92.7265,
    "category":"infrastructure",
    "severity":"medium",
    "date":"2026-06-05",
    "source":"Demo Data",
    "summary":"Expansion of island aviation infrastructure."
  },
  {
    "id":"INF016",
    "title":"Strategic Highway Upgrade",
    "location":"Jaisalmer",
    "lat":26.9157,
    "lng":70.9083,
    "category":"infrastructure",
    "severity":"medium",
    "date":"2026-06-02",
    "source":"Demo Data",
    "summary":"Road strengthening for military mobility."
  },
  {
    "id":"INF017",
    "title":"Forward Fuel Depot Expansion",
    "location":"Pathankot",
    "lat":32.2643,
    "lng":75.6421,
    "category":"infrastructure",
    "severity":"medium",
    "date":"2026-06-04",
    "source":"Demo Data",
    "summary":"Fuel storage capacity increase."
  },
  {
    "id":"INF018",
    "title":"Logistics Warehouse Development",
    "location":"Ahmedabad",
    "lat":23.0225,
    "lng":72.5714,
    "category":"infrastructure",
    "severity":"low",
    "date":"2026-06-03",
    "source":"Demo Data",
    "summary":"Strategic storage facility construction."
  },
  {
    "id":"INF019",
    "title":"Dedicated Freight Corridor Expansion",
    "location":"Rewari",
    "lat":28.1990,
    "lng":76.6198,
    "category":"infrastructure",
    "severity":"medium",
    "date":"2026-06-05",
    "source":"Demo Data",
    "summary":"Rail freight infrastructure upgrade."
  },
  {
    "id":"INF020",
    "title":"Integrated Check Post Upgrade",
    "location":"Attari",
    "lat":31.5950,
    "lng":74.5750,
    "category":"infrastructure",
    "severity":"medium",
    "date":"2026-06-04",
    "source":"Demo Data",
    "summary":"Border trade and security infrastructure enhancement."
  },
  {
    "id":"INF021",
    "title":"Coastal Surveillance Tower Network",
    "location":"Kutch Coast",
    "lat":22.8000,
    "lng":69.3000,
    "category":"infrastructure",
    "severity":"high",
    "date":"2026-06-05",
    "source":"Demo Data",
    "summary":"Expansion of maritime surveillance infrastructure."
  },
  {
    "id":"INF022",
    "title":"Runway Extension Project",
    "location":"Tezpur",
    "lat":26.6528,
    "lng":92.7926,
    "category":"infrastructure",
    "severity":"high",
    "date":"2026-06-05",
    "source":"Demo Data",
    "summary":"Airfield expansion for strategic aviation operations."
  },
  {
    "id":"INF023",
    "title":"Bridge Construction Monitoring",
    "location":"Brahmaputra Corridor",
    "lat":26.2000,
    "lng":91.7000,
    "category":"infrastructure",
    "severity":"medium",
    "date":"2026-06-03",
    "source":"Demo Data",
    "summary":"Major river crossing infrastructure project."
  },
  {
    "id":"INF024",
    "title":"Strategic Fibre Network Expansion",
    "location":"Hyderabad",
    "lat":17.3850,
    "lng":78.4867,
    "category":"infrastructure",
    "severity":"low",
    "date":"2026-06-02",
    "source":"Demo Data",
    "summary":"Secure communications backbone enhancement."
  },
  {
    "id":"INF025",
    "title":"Military Housing Complex Development",
    "location":"Pune",
    "lat":18.5204,
    "lng":73.8567,
    "category":"infrastructure",
    "severity":"low",
    "date":"2026-06-01",
    "source":"Demo Data",
    "summary":"Support infrastructure for defence personnel."
  }
]
